Year,Seq,Glide,Disaster Group,Disaster Subgroup,Disaster Type,Disaster Subtype,Disaster Subsubtype,Event Name,Country,ISO,Region,Continent,Location,Origin,Associated Dis,Associated Dis2,OFDA Response,Appeal,Declaration,Aid Contribution,Dis Mag Value,Dis Mag Scale,Latitude,Longitude,Local Time,River Basin,Start Year,Start Month,Start Day,End Year,End Month,End Day,Total Deaths,No Injured,No Affected,No Homeless,Total Affected,Insured Damages ('000 US$),Total Damages ('000 US$),CPI,Adm Level,Admin1 Code,Admin2 Code,Geo Locations
1905,3,,Natural,Geophysical,Earthquake,Ground movement,,,India,IND,Southern Asia,Asia,Kangra,,,,,,,,8.0,Richter,32.04,76.16,06:20,,1905,4.0,4.0,1905,4.0,4.0,20000.0,,,,,,25000.0,3.479379053,,,,
1950,8,,Natural,Geophysical,Earthquake,Ground movement,,,India,IND,Southern Asia,Asia,Assam province,,"Slide (land, mud, snow, rock)",Tsunami/Tidal wave,,,,,9.0,Richter,28.5,96.5,19:39,,1950,8.0,15.0,1950,8.0,15.0,1500.0,,,,,,20000.0,9.317003909,,,,
1956,38,,Natural,Geophysical,Earthquake,Ground movement,,,India,IND,Southern Asia,Asia,"Anjar, Bhuj, Gandhidham, Kandla",,,,,,,,6.0,Richter,23,70,21:02,,1956,7.0,21.0,1956,7.0,21.0,113.0,219.0,,,219.0,,,10.50315398,,,,
1967,77,,Natural,Geophysical,Earthquake,Ground movement,,,India,IND,Southern Asia,Asia,"Maharashtra, Koynana",,,,,,,,7.0,Richter,17.412,73.885,04:21,,1967,12.0,11.0,1967,12.0,11.0,177.0,2272.0,50000.0,,52272.0,,400.0,12.88906472,,,,
1970,112,,Natural,Geophysical,Earthquake,Ground movement,,,India,IND,Southern Asia,Asia,Broach,,,,,,,,5.0,Richter,21.7,73,07:22,,1970,3.0,23.0,1970,3.0,23.0,26.0,200.0,,,200.0,,,15.00128211,,,,
1975,14,,Natural,Geophysical,Earthquake,Ground movement,,,India,IND,Southern Asia,Asia,"Kinnaur district, Kashmir; Himachal Pradesh",,,,,,,,7.0,Richter,32.455,78.43,13:32,,1975,1.0,19.0,1975,1.0,19.0,47.0,,,,,,,20.79379863,,,,
1980,84,,Natural,Geophysical,Earthquake,Ground movement,,,India,IND,Southern Asia,Asia,Jammu (Kashmir),,,,,,,,6.0,Richter,32.913,75.633,03:06,,1980,8.0,24.0,1980,8.0,24.0,13.0,40.0,,,40.0,,,31.84110657,,,,
1984,124,,Natural,Geophysical,Earthquake,Ground movement,,,India,IND,Southern Asia,Asia,Cachar district (Assam),,,,,No,No,,6.0,Richter,24.40 N,92.34 E,,,1984,12.0,31.0,1984,12.0,31.0,20.0,100.0,800.0,10000.0,10900.0,,,40.13865994,,,,
1986,372,,Natural,Geophysical,Earthquake,Ground movement,,,India,IND,Southern Asia,Asia,Dharmsala,,,,,No,No,,5.0,Richter,32.128 N,76.374 E,,,1986,4.0,26.0,1986,4.0,26.0,6.0,30.0,,,30.0,,5000.0,42.35069857,,,,
1988,382,,Natural,Geophysical,Earthquake,Ground movement,,,India,IND,Southern Asia,Asia,"Dharbhanga, Madhubani, Saharsa, Munger, Khagana, Bihar Sharie (Bihar State)",,,,Yes,,,,7.0,Richter,26.755,616,4:39,,1988,8.0,21.0,1988,8.0,21.0,382.0,3766.0,20000000.0,,20003766.0,,71500.0,45.69289676,,,,
1991,368,,Natural,Geophysical,Earthquake,Ground movement,,,India,IND,Southern Asia,Asia,"Harsil (near Gangotri, Uttarkashi's Bhagirathi valley, Uttar Pradesh)",,"Slide (land, mud, snow, rock)",,Yes,No,No,,6.0,Richter,30.780 N,78.774 E,,,1991,10.0,20.0,1991,10.0,20.0,1500.0,1383.0,53000.0,,54383.0,,60000.0,52.62202002,,,,
1993,74,,Natural,Geophysical,Earthquake,Ground movement,,,India,IND,Southern Asia,Asia,"Killari, Haegoan, Sostour, Holi (Latur and Osmanabad districts, Maharastra state)",,,,Yes,No,No,16452.0,6.0,Richter,16.40 N,74.20 E,,,1993,9.0,29.0,1993,9.0,29.0,9748.0,30000.0,,,30000.0,,280000.0,55.8161073,,,,
1993,581,,Natural,Geophysical,Earthquake,Ground movement,,,India,IND,Southern Asia,Asia,Latur area,,,,,No,No,,5.0,Richter,18.120 N,76.533 E,,,1993,11.0,12.0,1993,11.0,12.0,,25.0,500.0,,525.0,,,55.8161073,,,,
1997,115,,Natural,Geophysical,Earthquake,Ground movement,,,India,IND,Southern Asia,Asia,Jabalpur (Madhya Pradesh),,,,,No,No,,6.0,Richter,23.083 N,80.041 E,04:22,,1997,5.0,22.0,1997,5.0,22.0,43.0,1500.0,125000.0,30000.0,156500.0,,37000.0,62.02075732,,,,
1999,99,,Natural,Geophysical,Earthquake,Ground movement,,,India,IND,Southern Asia,Asia,"Chamoli, Rudraprayag, Bageshwar (new district), Tehri Garhwal, Pauri Garhwal district",,,,Yes,,,25.0,7.0,Richter,30.512,79.403,0:35,,1999,3.0,28.0,1999,3.0,28.0,100.0,394.0,372000.0,105500.0,477894.0,,2000.0,64.36159282,,,,
2001,33,,Natural,Geophysical,Earthquake,Ground movement,,,India,IND,Southern Asia,Asia,"Ahmadabad, Amreli, Anand, Banas Kantha, Bharuch, Bhavnagar, Dahdod, Gandhinagar, Jamnagar, Junagadh, Kachchh, Kheda, Mahesana, Navsari, Patan, Porbandar, Rajkot, Sabar Kantha, Surat, Surendranagar, Vadodara districts (Gurajat province)",,,,Yes,,,118929.0,8.0,Richter,23.419,70.232,8:46,,2001,1.0,26.0,2001,1.0,26.0,20005.0,166812.0,4365000.0,1790000.0,6321812.0,100000.0,2623000.0,68.41537906,2,,17635;17636;17637;17638;17639;17640;17641;17642;17643;17644;17645;17647;17648;17649;17650;17652;70124;70125;70127;70129;70130,"Ahmadabad, Amreli, Anand, Banas Kantha, Bharuch, Bhavnagar, Dahod, Gandhinagar, Jamnagar, Junagadh, Kachchh, Kheda, Mahesana, Navsari, Patan, Porbandar, Rajkot, Sabar Kantha, Surat, Surendranagar, Vadodara (Adm2). "
2002,584,,Natural,Geophysical,Earthquake,Ground movement,,,India,IND,Southern Asia,Asia,Andaman Islands district (Andaman and Nicobar province),,Tsunami/Tidal wave,,,,,,7.0,Richter,13.036,93.068,4:00,,2002,9.0,13.0,2002,9.0,13.0,2.0,,,200.0,200.0,,,69.50047255,2,,17545,Andaman Islands (Adm2). 
2004,659,,Natural,Geophysical,Earthquake,Tsunami,,,India,IND,Southern Asia,Asia,"Kancheepuram, Villupuram, Nagapattinam, Thoothukudi, Tirunelveli Kattabo, Kanniyakumari, Chennai, Thiruvallur, Cuddalore, Pudukkottai, Ramanathapuram, Sivaganga, Thanjavur districts (Tamil Nadu province), Vishakhapatnam, East Godavari, West Godavari, Krishna, Guntur, Prakasam, Nellore districts (Andhra Pradesh province), Kollam, Alappuzha, Ernakulam districts (Kerala province), Puducherry, Karaikal district (Puducherry province), Andaman and Nicobar province",Earthquake,,,Yes,,,,9.0,Richter,3.295,95.982,,,2004,12.0,26.0,2004,12.0,26.0,16389.0,6913.0,647599.0,,654512.0,5000.0,1022800.0,72.98112921,1;2,1484,17551;17552;17556;17561;17563;17566;17569;17699;17707;17866;17870;17876;17878;17881;17882;17884;70226;70228;70242;70243;70244;70247;70251;70255;70298,"Andaman and Nicobar (Adm1). Alappuzha, Chennai, Cuddalore, East Godavari, Ernakulam, Guntur, Kancheepuram, Kanniyakumari, Karaikal, Kollam, Krishna, Nagapattinam, Nellore, Prakasam, Puducherry, Pudukkottai, Ramanathapuram, Sivaganga, Thanjavur, Thiruvallur, Thoothukudi, Tirunelveli Kattabo, Villupuram, Vishakhapatnam, West Godavari (Adm2). "
2005,575,,Natural,Geophysical,Earthquake,Ground movement,,,India,IND,Southern Asia,Asia,Administrative unit not available districts (Jammu and Kashmir province),,Fire,,Yes,,,,8.0,Richter,34.539,73.588,,,2005,10.0,8.0,2005,10.0,8.0,1309.0,6622.0,,150000.0,156622.0,,1000000.0,75.45719958,2,,40410;40414;72789;72802;72810,Administrative unit not available (Adm2). 
2006,548,,Natural,Hydrological,Flood,Flash flood,,,India,IND,Southern Asia,Asia,Jammu and Kashmir provinces,Monsoonal rai,"Slide (land, mud, snow, rock)",,,,,,,Km2,32.89,73.88,,"Jhelum, Sutlej, Lidder, Chenab, Tavi, Tawi, Munnawar Tawi",2006,8.0,31.0,2006,9.0,11.0,19.0,,15000.0,,15000.0,,,77.89139999,1,40422;40423;40424;40425;40426;40427;40428;40429;40430;40431,,Jammu and Kashmir (Administrative unit not available) (Adm1). 
2006,370,,Natural,Hydrological,Flood,Riverine flood,,,India,IND,Southern Asia,Asia,"Gajapati, Rayagada districts (Orissa province)",Monsoonal rain,"Slide (land, mud, snow, rock)",,,,,,31360.0,Km2,19.17,83.65,,"Gajapati, Rayagada, Jhingiritial",2006,7.0,3.0,2006,7.0,8.0,33.0,,,,,,,77.89139999,2,,70213;70224,"Gajapati, Rayagada (Adm2). "
2006,417,,Natural,Hydrological,Flood,Riverine flood,,,India,IND,Southern Asia,Asia,"Andhra Pradesh, Gujarat, Maharashtra, Chhattisgarh, Rajasthan, Madhya Pradesh, Orissa, Karnataka provinces",Monsoonal rain,"Slide (land, mud, snow, rock)",,,,,4474.0,165400.0,Km2,20.19,73.82,,"Narmada, Pooma, Puma, Ambika",2006,7.0,28.0,2006,9.0,12.0,350.0,65.0,,4000000.0,4000065.0,407000.0,3390000.0,77.89139999,1,1485;1491;1494;1498;1504;1506;70075;70079,,"Andhra Pradesh, Chhattisgarh, Gujarat, Karnataka, Madhya Pradesh, Maharashtra, Orissa, Rajasthan (Adm1). "
2006,510,,Natural,Meteorological,Storm,Tropical cyclone,,,India,IND,Southern Asia,Asia,"Andhra Pradesh, West Bengal, Bihar provinces",Monsoonal rain,Flood,,,,,,,Kph,19.73,83.75,,,2006,9.0,18.0,2006,10.0,5.0,114.0,300.0,,150000.0,150300.0,,,77.89139999,1,1485;1511;70073,,"Andhra Pradesh, Bihar, West Bengal (Adm1). "
2006,207,,Natural,Hydrological,Flood,Flash flood,,,India,IND,Southern Asia,Asia,"Adilabad, Hyderabad, Karimnagar, Khammam, Mahbubnagar, Medak, Nalgonda, Nizamabad, Rangareddi, Warangal, Srikakulam, Krishna districts (Andhra Pradesh province)",Heavy rain,,,,,,,190900.0,Km2,17.43,82.81,,,2006,4.0,15.0,2006,4.0,18.0,20.0,,,,,,,77.89139999,2,,17547;17553;17554;17555;17556;17558;17559;17560;17562;17564;17565;17568,"Adilabad, Hyderabad, Karimnagar, Khammam, Krishna, Mahbubnagar, Medak, Nalgonda, Nizamabad, Rangareddi, Srikakulam, Warangal (Adm2). "
2006,262,,Natural,Hydrological,Flood,Riverine flood,,,India,IND,Southern Asia,Asia,"Assam, Tripura provinces",Monsoonal rain,,,,,,,47020.0,Km2,26.6,94.02,,Brahmaputra and tributaries,2006,5.0,31.0,2006,7.0,24.0,21.0,,504000.0,,504000.0,,,77.89139999,1,1487;1509,,"Assam, Tripura (Adm1). "
2006,263,,Natural,Hydrological,Flood,Riverine flood,,,India,IND,Southern Asia,Asia,Kerala province,Monsoonal rain,,,,,,,42690.0,Km2,10.54,76.05,,,2006,5.0,25.0,2006,6.0,2.0,32.0,,10800.0,,10800.0,,,77.89139999,1,1495,,Kerala (Adm1). 
2006,265,,Natural,Hydrological,Flood,Riverine flood,,,India,IND,Southern Asia,Asia,"Maharashtra, Gujarat provinces",Monsoonal rain,,,,,,,395400.0,Km2,18.73,75.23,,,2006,5.0,31.0,2006,6.0,4.0,41.0,,,,,,,77.89139999,1,1491;1498,,"Gujarat, Maharashtra (Adm1). "
2006,342,,Natural,Hydrological,Flood,Riverine flood,,,India,IND,Southern Asia,Asia,"Ballia, Chandauli districts (Uttar Pradesh province)",Monsoonal rain,,,,,,,13110.0,Km2,25.62,83.67,,Ganges and tributaries,2006,6.0,24.0,2006,6.0,27.0,130.0,,300000.0,,300000.0,,,77.89139999,2,,17894;70262,"Ballia, Chandauli (Adm2). "
2006,369,,Natural,Hydrological,Flood,Riverine flood,,,India,IND,Southern Asia,Asia,"Navsari, The Dangs districts (Gujarat)",Heavy rain,,,,,,,170100.0,Km2,22.41,71.31,,,2006,7.0,4.0,2006,7.0,7.0,24.0,,8400.0,,8400.0,,,77.89139999,2,,17651;70127,"Navsari, The Dangs (Adm2). "
2006,389,,Natural,Hydrological,Flood,Riverine flood,,,India,IND,Southern Asia,Asia,Jammu and Kashmir provinces,Monsoonal rain,,,,,,,,Km2,34.61,73.2,,"Jelum, Chenab",2006,7.0,24.0,2006,8.0,22.0,15.0,,800.0,,800.0,,,77.89139999,1,40422;40423;40424;40425;40426;40427;40428;40429;40430;40431,,Jammu and Kashmir (Administrative unit not available) (Adm1). 
2006,549,,Natural,Hydrological,Flood,Riverine flood,,,India,IND,Southern Asia,Asia,"Balrampur, Bahraich, Lakhimpur Kheri, Shravasti, Gonda, Bara Banki districts (Uttar Pradesh province)",Monsoonal rain,,,,,,,32700.0,Km2,27.59,81.52,,"Rapti, Ghaghra, SAryu",2006,8.0,29.0,2006,9.0,4.0,42.0,,100000.0,,100000.0,,,77.89139999,2,,17893;17896;17913;17921;70261;70277,"Bahraich, Balrampur, Bara Banki, Gonda, Lakhimpur Kheri, Shravasti (Adm2). "
2006,601,,Natural,Hydrological,Flood,Riverine flood,,,India,IND,Southern Asia,Asia,"Tamil Nadu, Andhra Pradesh provinces",Monsoonal rain and Cyclonic storm Ogni,,,,,,,40090.0,Km2,14.13,79.93,,"Godavari, Krishna deltas",2006,10.0,26.0,2006,11.0,4.0,47.0,,225000.0,,225000.0,,,77.89139999,1,1485;1508,,"Andhra Pradesh, Tamil Nadu (Adm1). "
2006,712,,Natural,Hydrological,Flood,Riverine flood,,,India,IND,Southern Asia,Asia,"Orissa, Andhra Pradesh, Chhattisgarh provinces",Monsoonal rain,,,,,,,302800.0,Km2,18.1,81.53,,,2006,8.0,1.0,2006,9.0,10.0,185.0,,2000000.0,,2000000.0,,,77.89139999,1,1485;1504;70075,,"Andhra Pradesh, Chhattisgarh, Orissa (Adm1). "
2007,250,,Natural,Hydrological,Flood,Flash flood,,,India,IND,Southern Asia,Asia,"Kurnool, Mahbubnagar, Guntur, Prakasam, East Godavari, West Godavari, Anantapur, Cuddapah districts (Andhra Pradesh province), Thrissur district (Kerala province), Belgaum, Bijapur, Bagalkot, Kodagu, Hassan, Mysore districts (Karnataka province), Mumbai City, Pune districts (Maharashtra province)",Monsoonal rain and tropical cyclone,"Slide (land, mud, snow, rock)",,,,,,449300.0,Km2,14.94,78.16,,"Krishna, Godavari and tributaries",2007,6.0,22.0,2007,7.0,4.0,127.0,,200000.0,,200000.0,,,80.11339326,2,,17548;17550;17551;17552;17557;17558;17563;17569;17679;17682;17688;17689;17692;17708;17776;70157;70184,"Anantapur, Bagalkot, Belgaum, Bijapur, Cuddapah, East Godavari, Guntur, Hassan, Kodagu, Kurnool, Mahbubnagar, Mumbai city, Mysore, Prakasam, Pune, Thrissur, West Godavari (Adm2). "
2007,364,,Natural,Hydrological,Flood,Riverine flood,,,India,IND,Southern Asia,Asia,Himachal Pradesh province,Heavy rains,"Slide (land, mud, snow, rock)",,,,,,191400.0,Km2,31.24,76.53,,"Tawi, Sutlej, Basantar",2007,8.0,12.0,2007,8.0,17.0,76.0,,15000.0,,15000.0,,,80.11339326,1,1493,,Himachal Pradesh (Adm1). 
2007,467,,Natural,Hydrological,Flood,Coastal flood,,,India,IND,Southern Asia,Asia,"Baleshwar, Kendrapara, Bhadrak, Jagatsinghpur, Jajpur, Mayurbhanj, Khordha, Cuttack, Puri, Kandhamal districts (Orissa province), Kolkata, South 24 Parganas, East Midnapore, West Midnapore, Hughli districts (West Bengal province)",Tropical depression in Bay of Bengal,,,,,,,72010.0,Km2,20.91,86.4,,"Brahmani, Baitarani, Burhabalang, Budhabalanga, Suvarnarekha, Kalo, Sunei, Jalaka, Kansabansha (Orissa), Hugli, Kangsabati, Keleghai, Silabati, Subarnarekha, Dulung, Bhagirathihad, Bhagirathiis, Bhagirati (West Be,gal",2007,9.0,22.0,2007,10.0,3.0,80.0,,7200000.0,,7200000.0,,275000.0,80.11339326,2,,17809;17816;17818;17950;70207;70209;70214;70215;70217;70218;70219;70291;70292;70294;70296,"Baleshwar, Bhadrak, Cuttack, East Midnapore, Hugli, Jagatsinghpur, Jajpur, Kandhamal, Kendrapara, Khordha, Kolkata, Mayurbhanj, Puri, South 24 Parganas, West Midnapore (Adm2). "
2007,225,,Natural,Hydrological,Flood,Riverine flood,,,India,IND,Southern Asia,Asia,"Lakhimpur, Dhemaji, Cachar, Karimganj, Hailakandi, Darrang, Dibrugarh districts (Assam province)",Monsoonal rain,,,,,,,74890.0,Km2,26.26,94.02,,Brahmaputra and tributaries,2007,6.0,18.0,2007,6.0,26.0,15.0,,200000.0,,200000.0,,,80.11339326,2,,17577;17578;17580;17585;70087;70088;70091,"Cachar, Darrang, Dhemaji, Dibrugarh, Hailakandi, Karimganj, Lakhimpur (Adm2). "
2007,238,,Natural,Hydrological,Flood,Riverine flood,,,India,IND,Southern Asia,Asia,"Junagadh district (Daman and Diu province), Amreli, Bhavnagar, Jamnagar, Junagadh, Porbandar, Rajkot, Surendranagar districts (Gujarat province), Rajasthan, Madhya Pradesh",Monsoonal rain,,,,,,,61700.0,Km2,22.02,72.25,,Pooma,2007,7.0,1.0,2007,7.0,13.0,225.0,,63000.0,,63000.0,,,80.11339326,1;2,1506;70079,17636;17639;17641;17642;17647;17650;70121;70130,"Madhya Pradesh, Rajasthan (Adm1). Amreli, Bhavnagar, Jamnagar, Junagadh, Porbandar, Rajkot, Surendranagar (Adm2). "
2007,239,,Natural,Hydrological,Flood,Riverine flood,,,India,IND,Southern Asia,Asia,"Amravati, Mumbai City, Mumbai Suburban, Raigarh, Ratnagiri, Sindhudurg, Thane districts (Maharashtra province)",Monsoonal rain,,,,,,,106600.0,Km2,21.03,77.52,,,2007,7.0,1.0,2007,7.0,6.0,62.0,,10000.0,,10000.0,,,80.11339326,2,,17759;17777;17778;17779;17783;70183;70184,"Amravati, Mumbai city, Mumbai Suburban, Raigarh, Ratnagiri, Sindhudurg, Thane (Adm2). "
2007,240,,Natural,Hydrological,Flood,Riverine flood,,,India,IND,Southern Asia,Asia,"Raipur, Bilaspur, Mahasamund, Durg districts (Chhattisgarh province)",Monsoonal rain,,,,,,,74000.0,Km2,20.05,81.86,,Mahanadi and tributaries,2007,6.0,30.0,2007,7.0,13.0,29.0,,50000.0,,50000.0,,,80.11339326,2,,17724;70106;70115;70116,"Bilaspur, Durg, Mahasamund, Raipur (Adm2). "
2007,311,,Natural,Hydrological,Flood,Riverine flood,,,India,IND,Southern Asia,Asia,"Udaipur, Amarpur cities (South Tripura district, Tripura province), Sonamura citiy (West Tripura district, Tripura province)",Monsoonal rain,,,,,,,,Km2,23.92,91.23,,,2007,7.0,21.0,2007,8.0,3.0,,,,,,,,80.11339326,2,,17886;17887,"South Tripura, West Tripura (Adm2). "
2007,320,FL-2007-000096,Natural,Hydrological,Flood,Riverine flood,,,India,IND,Southern Asia,Asia,"Bihar, Uttar Pradesh, Assam, Orissa, West Bengal provinces",Monsoonal rain,,,,,,,483900.0,Km2,22.63,88.49,,"Ganga, Brahmaputra, Meghana rivers",2007,7.0,3.0,2007,9.0,22.0,1103.0,,18700000.0,,18700000.0,,,80.11339326,1,1487;1504;1511;70073;70081,,"Assam, Bihar, Orissa, Uttar Pradesh, West Bengal (Adm1). "
2007,415,,Natural,Hydrological,Flood,Riverine flood,,,India,IND,Southern Asia,Asia,Gujarat province,Monsoonal rain,,,,,,,133800.0,Km2,22.68,70.93,,,2007,8.0,8.0,2007,8.0,15.0,16.0,,,,,,,80.11339326,1,1491,,Gujarat (Adm1). 
2007,469,,Natural,Hydrological,Flood,Riverine flood,,,India,IND,Southern Asia,Asia,"Kurnool, Cuddapah, Warangal, Nalgonda, Karimnagar, Mahbubnagar, Anantapur, Nellore, Krishna districts (Andhra Pradesh province), Gadag district (Karnataka province)",Monsoonal rain,,,,,,,90280.0,Km2,15.71,79.88,,"Tungabhadra, Pennar, Hundri, Kundu",2007,9.0,16.0,2007,10.0,7.0,94.0,,20000.0,,20000.0,,,80.11339326,2,,17548;17550;17554;17556;17557;17558;17560;17561;17568;70163,"Anantapur, Cuddapah, Gadag, Karimnagar, Krishna, Kurnool, Mahbubnagar, Nalgonda, Nellore, Warangal (Adm2). "
2007,524,,Natural,Hydrological,Flood,Riverine flood,,,India,IND,Southern Asia,Asia,"Andhra Pradesh, Tamil Nadu province",Heavy rain,,,,,,,76740.0,Km2,12.73,79.7,,"Mamidikalva and other canals at Naidupet, Pannaiyar, Vellar, Gedilam, Paravanarul, Kollidam, Old Kollidam and the Manimautharu",2007,10.0,27.0,2007,11.0,1.0,29.0,,50000.0,,50000.0,,,80.11339326,1,1485;1508,,"Andhra Pradesh, Tamil Nadu (Adm1). "
2007,596,,Natural,Hydrological,Flood,Riverine flood,,,India,IND,Southern Asia,Asia,"Cuttack, Puri, Khordha, Jajpur, Jagatsinghpur districts (Orissa province)",Monsoonal rain,,,,,,,15360.0,Km2,20.45,86.2,,"Bansadhara, Subamarekha, Jalaka, Kharasrota, Brahmani",2007,8.0,3.0,2007,8.0,27.0,15.0,,500000.0,,500000.0,,,80.11339326,2,,17809;17818;70214;70215;70219,"Cuttack, Jagatsinghpur, Jajpur, Khordha, Puri (Adm2). "
2007,602,,Natural,Hydrological,Flood,Riverine flood,,,India,IND,Southern Asia,Asia,"Assam, Arunachal Pradesh, Meghalaya, Manipur provinces",Monsoonal rain,,,,,,,103600.0,Km2,27.58,95.26,,,2007,7.0,12.0,2007,10.0,10.0,96.0,,11100000.0,,11100000.0,,,80.11339326,1,1487;1500;1501;70036;70037;70072,,"Arunachal Pradesh, Arunachal Pradesh (Administrative unit not available), Assam, Manipur, Meghalaya (Adm1). "
2007,603,,Natural,Hydrological,Flood,Riverine flood,,,India,IND,Southern Asia,Asia,Kerala province,Monsoonal rain,,,,,,,21120.0,Km2,10.39,76.31,,,2007,7.0,16.0,2007,7.0,20.0,44.0,,35000.0,,35000.0,,101151.0,80.11339326,1,1495,,Kerala (Adm1). 
2008,246,FL-2008-000089,Natural,Hydrological,Flood,Flash flood,,,India,IND,Southern Asia,Asia,"Lakhimpu, Dhemaji, Sonitpur districts (Assam province), West Bengal, Orissa, Bihar, Gujarat, Goa, Haryana, Kerala, Karnataka, Maharastra, Madhya Pradesh, Punjab, Rajasthan, Uttar Pradesh, Tamil Nadu, Arunachal Pradesh, Uttarakhand, Jharkhand provinces",Monsoonal rain,"Slide (land, mud, snow, rock)",,,,,,350600.0,Km2,25.18,91.54,,Kelegai river,2008,6.0,11.0,2008,7.0,21.0,1063.0,,7900000.0,,7900000.0,,123000.0,83.18902296,1;2,1490;1491;1492;1494;1495;1498;1504;1505;1506;1508;1511;70036;70037;70072;70073;70078;70079;70081;70082,17593;70087;70091,"Arunachal Pradesh, Arunachal Pradesh (Administrative unit not available), Bihar, Goa, Gujarat, Haryana, Jharkhand, Karnataka, Kerala, Madhya Pradesh, Maharashtra, Orissa, Punjab, Rajasthan, Tamil Nadu, Uttar Pradesh, Uttarakhand, West Bengal (Adm1). Dhemaji, Lakhimpur, Sonitpur (Adm2). "
2008,486,FL-2008-000145,Natural,Hydrological,Flood,Riverine flood,,,India,IND,Southern Asia,Asia,"Muzaffarpur, Supaul, Patna, Katihar, Nalanda, Araria, Pashchim Champaran, Sheikhpura, Saharsa, Purnia, Saran, Begusarai, Bhagalpur, Madhepura, Vaishali, Khagaria districts (Bihar province), Assam province","River Kosi in Nepal discharged huge levels of water, monsoonal rains",Broken Dam/Burst bank,,,,Yes,,80590.0,Km2,22.044,94.55,,Brahmaputra river,2008,8.0,30.0,2008,9.0,8.0,47.0,,2600000.0,,2600000.0,,20000.0,83.18902296,1;2,1487,17595;17596;17608;17609;17612;17613;17615;17618;17619;17621;17624;17628;17632;70094;70102;70104,"Assam (Adm1). Araria, Begusarai, Bhagalpur, Katihar, Khagaria, Madhepura, Muzaffarpur, Nalanda, Pashchim Champaran, Patna, Purnia, Saharsa, Saran, Sheikhpura, Supaul, Vaishali (Adm2). "
2008,415,,Natural,Hydrological,Flood,Riverine flood,,,India,IND,Southern Asia,Asia,"Khammam, West Godavari, Krishna, Guntur districts (Andhra Pradesh province)",Heavy monsoonal rain,,,,,,,75490.0,Km2,16.65,81.38,,Munneru,2008,9.0,5.0,2008,9.0,11.0,74.0,,,,,,,83.18902296,2,,17552;17555;17556;17569,"Guntur, Khammam, Krishna, West Godavari (Adm2). "
2008,615,,Natural,Hydrological,Flood,Riverine flood,,,India,IND,Southern Asia,Asia,"Lakhimpur, Jorhat districts (Assam province), Uttar Pradesh, Bihar provinces",Monsoonal rain,,,,,,,283800.0,Km2,27.5,89.79,,,2008,7.0,20.0,2008,8.0,8.0,142.0,,225000.0,,225000.0,,,83.18902296,1;2,70073;70081,70089;70091,"Bihar, Uttar Pradesh (Adm1). Jorhat, Lakhimpur (Adm2). "
2008,130,,Natural,Hydrological,Flood,,,,India,IND,Southern Asia,Asia,"Tamil Nadu, Karnataka provinces",Heavy rain,,,,,,,144300.0,Km2,10.76,78.72,,Bennihalla,2008,3.0,20.0,2008,3.0,28.0,37.0,,10278.0,,10278.0,,2000.0,83.18902296,1,1494;1508,,"Karnataka, Tamil Nadu (Adm1). "
2009,483,,Natural,Hydrological,Flood,Riverine flood,,,India,IND,Southern Asia,Asia,"Ooty, Coonoor cities (Nilgiris district, Tamil Nadu)",Heavy rains,"Slide (land, mud, snow, rock)",,,,,,35730.0,Km2,11.47,77.85,,,2009,11.0,3.0,2009,11.0,8.0,70.0,8.0,,,8.0,,64000.0,82.89324989,2,,17873,Nilgiris (Adm2). 
2009,429,FL-2009-000217,Natural,Hydrological,Flood,Riverine flood,,,India,IND,Southern Asia,Asia,"Belgaum, Gulbarga, Bijapur, Raichur, Dharwad, Bagalkot, Bellary, Koppal, Haveri, Bidar, Gadag, Davanegere, Uttar Kannand, Dakshin Kannad districts (Karnataka province), Kurnool, Mahbubnagar, Karimnagar, Anantapur, Krishna, Cuddapah, Guntur, Khammam, Nalgonda districts (Andhra Pradesh province), Maharashtra province",Torrential rains,,,Yes,,,728.0,309700.0,Km2,15.71,78.23,,Tungabhadra and Krishna rivers,2009,9.0,25.0,2009,10.0,12.0,355.0,,4100000.0,,4100000.0,51000.0,2150000.0,82.89324989,1;2,1498,17548;17550;17552;17554;17555;17556;17557;17558;17560;17679;17680;17681;17682;17685;17686;17687;17693;17696;70157;70162;70163;70164;70165,"Maharashtra (Adm1). Anantapur, Bagalkot, Belgaum, Bellary, Bidar, Bijapur, Cuddapah, Dakshin Kannad, Davanagere, Dharwad, Gadag, Gulbarga, Guntur, Haveri, Karimnagar, Khammam, Koppal, Krishna, Kurnool, Mahbubnagar, Nalgonda, Raichur, Uttar Kannand (Adm2). "
2010,373,,Natural,Hydrological,Flood,Flash flood,,,India,IND,Southern Asia,Asia,"Leh, Cholglamsar villages (72785 district, Jammu and Kashmir province)",Heavy rains,"Slide (land, mud, snow, rock)",,Yes,,,,145000.0,Km2,33.53,76.12,,,2010,8.0,6.0,2010,8.0,8.0,196.0,225.0,12500.0,,12725.0,,,84.25273272,2,,72785,Administrative unit not available (Adm2). 
2010,492,,Natural,Hydrological,Flood,Riverine flood,,,India,IND,Southern Asia,Asia,"Almora, Naini Tal districts (Uttarakhand province), Bihar, Uttar Pradesh provinces",Monsoonal rains,"Slide (land, mud, snow, rock)",,,,,,38537.0,Km2,26.73,82.84,,,2010,9.0,18.0,2010,9.0,30.0,200.0,,3267183.0,,3267183.0,,1680000.0,84.25273272,1;2,70073;70081,70280;70285,"Bihar, Uttar Pradesh (Adm1). Almora, Naini Tal (Adm2). "
2010,276,,Natural,Hydrological,Flood,Riverine flood,,,India,IND,Southern Asia,Asia,"Ambala, Kurukshetra districts (Haryana province), Punjab, Kerala provinces",Monsoonal rains,,,,,,,147437.0,Km2,30.18,74.77,,,2010,7.0,5.0,2010,7.0,15.0,53.0,,,400000.0,400000.0,,447000.0,84.25273272,1;2,1495;1505,17654;17661,"Kerala, Punjab (Adm1). Ambala, Kurukshetra (Adm2). "
2010,283,TC-2010-000097,Natural,Hydrological,Flood,Riverine flood,,,India,IND,Southern Asia,Asia,Andhra Pradesh province,,,,,,,,63170.0,Km2,15.22,79.48,,,2010,5.0,18.0,2010,5.0,24.0,27.0,,50000.0,,50000.0,,,84.25273272,1,1485,,Andhra Pradesh (Adm1). 
2010,416,,Natural,Hydrological,Flood,Riverine flood,,,India,IND,Southern Asia,Asia,Lakhimpur district (Assam province),Monsoonal rain,,,,,,,12555.0,Km2,26.235,92.25,,Singora,2010,9.0,5.0,2010,9.0,17.0,,,30000.0,,30000.0,,,84.25273272,2,,70091,Lakhimpur (Adm2). 
2010,493,,Natural,Hydrological,Flood,Riverine flood,,,India,IND,Southern Asia,Asia,"Punjab, Haryana, Uttar Pradesh provinces",Monsoonal rains,,,,,,,10843.0,Km2,25.965,76.05,,Ganges,2010,9.0,9.0,2010,9.0,9.0,,,12500.0,,12500.0,,,84.25273272,1,1492;1505;70081,,"Haryana, Punjab, Uttar Pradesh (Adm1). "
2010,629,,Natural,Hydrological,Flood,Riverine flood,,,India,IND,Southern Asia,Asia,"Chennai, Cuddalore, Nagapattinam, Pudukottai, Ramanthapuram, Thanjavur, Thiruvallur, Villupuram, Thoothukudi, Tirunelveli Kattabo districts (Tamil Nadu province)",Monsoonal rain,,,,,,,57474.0,Km2,9.88,78.47,,,2010,11.0,15.0,2010,12.0,7.0,203.0,,,,,,22000.0,84.25273272,2,,17866;17876;17878;17881;17884;70242;70243;70247;70251;70255,"Chennai, Cuddalore, Nagapattinam, Pudukkottai, Ramanathapuram, Thanjavur, Thiruvallur, Thoothukudi, Tirunelveli Kattabo, Villupuram (Adm2). "
2011,351,EQ-2011-000136,Natural,Geophysical,Earthquake,Ground movement,,,India,IND,Southern Asia,Asia,"Sikkim, West Bengal, Bihar, Assam, Meghalaya provinces",,"Slide (land, mud, snow, rock)",,,,,,7.0,Richter,27.73,88.155,18:11,,2011,9.0,18.0,2011,9.0,18.0,112.0,200.0,500000.0,75000.0,575200.0,,,86.91246502,1,1487;1501;1507;1511;70073,,"Assam, Bihar, Meghalaya, Sikkim, West Bengal (Adm1). "
2011,327,,Natural,Hydrological,Flood,Riverine flood,,,India,IND,Southern Asia,Asia,West Bengal province,Mosnoonal rains,,,,,,,28684.0,Km2,22.306,88.34,,,2011,8.0,10.0,2011,9.0,13.0,47.0,,700000.0,,700000.0,,275000.0,86.91246502,1,1511,,West Bengal (Adm1). 
2011,371,FL-2011-000138,Natural,Hydrological,Flood,Riverine flood,,,India,IND,Southern Asia,Asia,"Angul, Baleshwar, Baragarh, Bhadrak, Boudh, Cuttack, Deogarh, Dhenkanal, Jajpur, Jagatsinghpur, Jharsuguda, Kendrapara, Khordha, Mayurbhanj, Nayagarh, Nuapada, Puri, Sambalpur districts (Orissa province)",Monsoonal rains,,,Yes,,,,27751.0,Km2,20.651,86,,,2011,9.0,23.0,2011,10.0,23.0,239.0,,3443989.0,,3443989.0,,930000.0,86.91246502,2,,17809;17810;17816;17818;17819;70206;70207;70208;70209;70211;70212;70214;70215;70216;70218;70219;70222;70223,"Angul, Baleshwar, Baragarh, Bhadrak, Boudh, Cuttack, Deogarh, Dhenkanal, Jagatsinghpur, Jajpur, Jharsuguda, Kendrapara, Khordha, Mayurbhanj, Nayagarh, Nuapada, Puri, Sambalpur (Adm2). "
2011,422,,Natural,Hydrological,Flood,Riverine flood,,,India,IND,Southern Asia,Asia,"Dhemaji district (Assam province), East Garo Hills, South Garo Hills, West Garo Hills districts (Meghalaya province)",Monsoonal rain,,,,,,,50117.0,Km2,26.59,92.18,,,2011,8.0,15.0,2011,9.0,8.0,7.0,,11000.0,,11000.0,,,86.91246502,2,,17793;17796;70087;70198,"Dhemaji, East Garo Hills, South Garo Hills, West Garo Hills (Adm2). "
2011,424,,Natural,Hydrological,Flood,Riverine flood,,,India,IND,Southern Asia,Asia,"Barpeta, Bongaigaon, Darrang, Dhemaji, Dhuburi, Golaghat, Jorhat, Karbi Anglong, Sibsagar, Lakhimpur, Nagaon, Sonitpur districts, (Assam province), Begusarai, Bhagalpur, Bhojpur, Buxar, Gopalganj, Katihar, Khagaria, Kishanganj, Lakhisarai, Madhubani, Madhepura, Muzaffarpur, Patna, Purnia, Samastipur, Saran, Saharsa, Sitamarhi, Supaul, Vaishali, Pashchim Champaran districts (Bihar province), Azamgarh, Aligarh, Ambedkar Nagar, Badaun, Ballia, Bara Banki, Bahraich, Bareilly, Bijnor, Faizabad, Farrukhabad, Ghazipur, Gonda, Gorakhpur, Hardoi, Jyotiba Phule Nagar, Kannauj, Kanpur, Kushinagar, Lakhimpur Kheri, Meerut, Muzaffarnagar, Moradabad, Pilibhit, Rampur, Shahjahanpur, Sitapur, Unnao districts (Uttar Pradesh province)",Monsoonal rain,,,,,,,40941.0,Km2,26.376,86.24,,"Bagmati, Burgi, Dhansiri, Gandak, Ganges, Ghanghra, Kosi, Pupun rivers",2011,8.0,15.0,2011,10.0,2.0,204.0,,5549080.0,,5549080.0,,,86.91246502,2,,17576;17578;17579;17582;17584;17589;17592;17593;17595;17596;17604;17608;17609;17611;17612;17613;17618;17619;17621;17624;17626;17628;17630;17632;17889;17892;17893;17894;17896;17920;17921;17926;17928;17929;17931;17935;17937;17938;17941;70086;70087;70089;70091;70097;70098;70100;70101;70104;70257;70259;70267;70268;70271,"Aligarh, Ambedkar Nagar, Azamgarh, Badaun, Bahraich, Ballia, Bara Banki, Barpeta, Begusarai, Bhagalpur, Bhojpur, Bongaigaon, Buxar, Darrang, Dhemaji, Dhuburi, Golaghat, Gopalganj, Jorhat, Jyotiba Phule Nagar, Kannauj, Kanpur, Karbi Anglong, Katihar, Khagaria, Kishanganj, Kushinagar, Lakhimpur, Lakhimpur Kheri, Lakhisarai, Madhepura, Madhubani, Meerut, Moradabad, Muzaffarnagar, Muzaffarpur, Nagaon, Pashchim Champaran, Patna, Pilibhit, Purnia, Rampur, Saharsa, Samastipur, Saran, Shahjahanpur, Sibsagar, Sitamarhi, Sitapur, Sonitpur, Supaul, Unnao, Vaishali (Adm2). "
2011,428,,Natural,Hydrological,Flood,Riverine flood,,,India,IND,Southern Asia,Asia,"Gonda, Balrampur, Faizabad, Bara Banki districts (Uttar Pradesh province), Rajasthan province","Monsoonal rains, dam releases",,,,,,,85509.0,Km2,28.524,80.93,,,2011,7.0,23.0,2011,8.0,9.0,19.0,,200000.0,,200000.0,,,86.91246502,1;2,1506,17896;17907;17913;70261,"Rajasthan (Adm1). Balrampur, Bara Banki, Faizabad, Gonda (Adm2). "
2012,179,FL-2012-000110,Natural,Hydrological,Flood,Riverine flood,,,India,IND,Southern Asia,Asia,"Anjaw (70044), Lohit, Changlang, 70045, 70050, Lower Dibang Valley, East Siang, Upper Siang (70051) districts (Arunachal Pradesh province), Assam province",Monsoonal rain,"Slide (land, mud, snow, rock)",,,,,2700.0,254935.0,Km2,26.5659,92.44,,Brahmaputra,2012,6.0,26.0,2012,7.0,13.0,120.0,,2200000.0,,2200000.0,,,88.71096898,1;2,1487,17571;17572;70044;70045;70050;70051;70083;70084,"Assam (Adm1). Administrative unit not available, Changlang, East Siang, Lohit, Lower Dibang Valley (Adm2). "
2012,334,,Natural,Hydrological,Flood,Riverine flood,,,India,IND,Southern Asia,Asia,"Palchan village (Kullu district, Himachal Pradesh province), Uttarkashi, Rudra Prayag, Chamoli districts (Uttarakhand province), Moradabad district (Uttar Pradesh province), Kathua village (72780 district, Jammu and Kashmir province)",Torrential rain,"Slide (land, mud, snow, rock)",,,,,,31390.0,Km2,30.1135,78.85,,,2012,8.0,4.0,2012,8.0,9.0,30.0,,1200.0,,1200.0,,110000.0,88.71096898,2,,17671;17928;70282;70286;70289;72780,"Administrative unit not available, Chamoli, Kullu, Moradabad, Rudra Prayag, Uttarkashi (Adm2). "
2012,354,,Natural,Hydrological,Flood,Riverine flood,,,India,IND,Southern Asia,Asia,"Rudra Prayag, Bageshwar districts (Uttarakhand province)",Heavy rains,"Slide (land, mud, snow, rock)",,,,,,37710.0,Km2,31.3,76.85,,,2012,9.0,16.0,2012,9.0,18.0,45.0,,200.0,,200.0,,20000.0,88.71096898,2,,70281;70286,"Bageshwar, Rudra Prayag (Adm2). "
2012,382,,Natural,Hydrological,Flood,Riverine flood,,,India,IND,Southern Asia,Asia," Barpeta, Bongaigaon, Darrang, Dhemaji, Dhuburi, Dibrugarh, Goalpara, Golaghat, Jorhat, Kamrup, Lakhimpur, Marigaon, Nagaon, Nalbari, Papum Pare, Sibsagar, Sonitpur, Tinsukia districts (Assam province), Bhagalpur, Darbhanga, Katihar, Khagaria, Muzaffarpur, Patna, Siwan, Supaul districts (Bihar province), Sahibganj district (Jharkhand province), North Sikkim district (Sikkim province), Ballia, Bara Banki, Faizabad districts (Uttar Pradesh province), Murshidabad district (West Bengal province), West Siang, East Siang, Lohit, Papum Pare districts (Arunachal Pradesh province)",Monsoonal rains,"Slide (land, mud, snow, rock)",,,,,,42597.0,Km2,26.8,93.63,,,2012,9.0,19.0,2012,9.0,23.0,21.0,,2000000.0,,2000000.0,,98000.0,88.71096898,2,,17571;17572;17575;17576;17578;17579;17580;17581;17582;17583;17589;17590;17592;17593;17596;17598;17608;17609;17613;17619;17631;17862;17894;17896;17907;17955;70085;70086;70087;70089;70091;70092;70093;70104;70154,"Ballia, Bara Banki, Barpeta, Bhagalpur, Bongaigaon, Darbhanga, Darrang, Dhemaji, Dhuburi, Dibrugarh, East Siang, Faizabad, Goalpara, Golaghat, Jorhat, Kamrup, Katihar, Khagaria, Lakhimpur, Lohit, Marigaon, Murshidabad, Muzaffarpur, Nagaon, Nalbari, North Sikkim, Papum Pare, Patna, Sahibganj, Sibsagar, Siwan, Sonitpur, Supaul, Tinsukia, West Siang (Adm2). "
2013,192,FL-2013-000070,Natural,Hydrological,Flood,Riverine flood,,,India,IND,Southern Asia,Asia,"Uttarakhand, Himachal Pradesh, Uttar Pradesh, Bihar, Karnataka, Kerala, Gujarat, West Bengal provinces",Monsoonal rain,"Slide (land, mud, snow, rock)",,Yes,,,,131743.0,Km2,32.714,76.61,,"Ganges, Yamuna, Ghaghara tivers",2013,6.0,12.0,2013,6.0,27.0,6054.0,4473.0,500000.0,,504473.0,500000.0,1100000.0,90.01044002,1,1491;1493;1494;1495;1511;70073;70081;70082,,"Bihar, Gujarat, Himachal Pradesh, Karnataka, Kerala, Uttar Pradesh, Uttarakhand, West Bengal (Adm1). "
2013,140,EQ-2013-000056,Natural,Geophysical,Earthquake,Ground movement,,,India,IND,Southern Asia,Asia,Administrive unit not available district (Jammu and Kashmir province),,,,,,,,6.0,Richter,33.061,75.863,12:27,,2013,5.0,1.0,2013,5.0,1.0,3.0,70.0,59280.0,,59350.0,,120000.0,90.01044002,2,,72809,Administrative unit not available (Adm2). 
2012,425,,Natural,Meteorological,Storm,Tropical cyclone,,Cyclone Nilam,India,IND,Southern Asia,Asia,"Andhra Pradesh, Tamil Nadu provinces",,Flood,Surge,,,,,,Kph,11.82,78.08,,,2012,11.0,4.0,2012,11.0,8.0,40.0,,70000.0,,70000.0,,,88.71096898,1,1485;1508,,"Andhra Pradesh, Tamil Nadu (Adm1). "
2013,282,,Natural,Hydrological,Flood,,,,India,IND,Southern Asia,Asia,"Dhemaji, Tinsukia, Nagaon, Golaghat, Jorhat, Kamrup, Karimganj, Lakhimpur, Morigaon, Sibsaga, Bongaigaon, Kokrajhar districts (Assam province)",Monsoonal rain,,,,,,,38019.0,Km2,27.387,94.92,,,2013,6.0,23.0,2013,7.0,15.0,80.0,,2000000.0,,2000000.0,,,90.01044002,2,,17582;17583;17585;17589;17592;70086;70087;70089;70090;70091;70092;70093,"Bongaigaon, Dhemaji, Golaghat, Jorhat, Kamrup, Karimganj, Kokrajhar, Lakhimpur, Marigaon, Nagaon, Sibsagar, Tinsukia (Adm2). "
2015,107,FL-2015-000029,Natural,Hydrological,Flood,Flash flood,,,India,IND,Southern Asia,Asia,"Chadoora village (72811 district, Jammu and Kashmir province)",Heavy rains,"Slide (land, mud, snow, rock)",,,,,,70288.0,Km2,33.1767,76.41,,Jhelum river,2015,3.0,20.0,2015,3.0,31.0,44.0,25.0,,2097.0,2122.0,,76000.0,91.57911703,2,,72811,Administrative unit not available (Adm2). 
2015,317,,Natural,Hydrological,Flood,Riverine flood,,,India,IND,Southern Asia,Asia,"Kachchh, Patan, Banas Kantha districts (Gujarat province), Malda, Jalpaiguri districts (West Bengal province), Jorhat, Dhemaji, Lakhimpur, Dhuburi, Darrang, Goalpara, Karbi Anglong, Marigaon districts (Assam province), Manipur, Orissa, Rajasthan, Madhya Pradesh provinces","Monsoon rains, exacerbated by tail end of Cyclone Komen","Slide (land, mud, snow, rock)",,,,,,629962.0,Km2,26.2074,82.62,,,2015,7.0,15.0,2015,8.0,19.0,293.0,,13709887.0,,13709887.0,,,91.57911703,1;2,1500;1504;1506;70079,17578;17579;17581;17584;17637;17643;17951;17953;70087;70089;70091;70092;70129,"Madhya Pradesh, Manipur, Orissa, Rajasthan (Adm1). Banas Kantha, Darrang, Dhemaji, Dhuburi, Goalpara, Jalpaiguri, Jorhat, Kachchh, Karbi Anglong, Lakhimpur, Maldah, Marigaon, Patan (Adm2). "
2015,144,EQ-2015-000048,Natural,Geophysical,Earthquake,Ground movement,,,India,IND,Southern Asia,Asia,"Bihar, Uttar Pradesh, West Bengal, Sikkim provinces",,,,,,,,8.0,Richter,28.2305,84.7314,,,2015,4.0,25.0,2015,4.0,25.0,78.0,560.0,,,560.0,,,91.57911703,1,1507;1511;70073;70081,,"Bihar, Sikkim, Uttar Pradesh, West Bengal (Adm1). "
2015,175,,Natural,Geophysical,Earthquake,Ground movement,,,India,IND,Southern Asia,Asia,Bihar province,,,,,,,,7.0,Richter,27.8087,86.0655,12:35,,2015,5.0,12.0,2015,5.0,12.0,20.0,,,,,,,91.57911703,1,70073,,Bihar (Adm1). 
2015,476,EQ-2015-000147,Natural,Geophysical,Earthquake,Ground movement,,,India,IND,Southern Asia,Asia,"Administrative unit not available districts (Jammu and Kashmir province), Delhi, Punjab provinces",,,,,,,,8.0,Richter,36.5244,70.3676,13:39,,2015,10.0,26.0,2015,10.0,26.0,,10.0,,,10.0,,,91.57911703,1;2,1489;1505,72789;72802;72810;72851,"Delhi, Punjab (Adm1). Administrative unit not available (Adm2). "
2015,207,,Natural,Hydrological,Flood,Flash flood,,,India,IND,Southern Asia,Asia,"Bhadrairuppu village (Virudhunagar district, Tamil Nadu province)",Torrential rain,,,,,,,14179.0,Km2,10.7121,79.18,,,2015,5.0,17.0,2015,5.0,21.0,8.0,,200.0,,200.0,,,91.57911703,2,,17869,Virudhunagar (Adm2). 
2015,249,,Natural,Hydrological,Flood,Riverine flood,,,India,IND,Southern Asia,Asia,"Amreli, Rajkot, Surat districts (Gujarat province), Maharashtra province",Monsoon rains,,,,,,,43782.0,Km2,21.8734,70.76,,,2015,6.0,19.0,2015,6.0,20.0,81.0,,9000.0,,9000.0,,604000.0,91.57911703,1;2,1498,17636;17647;17649,"Maharashtra (Adm1). Amreli, Rajkot, Surat (Adm2). "
2015,226,FL-2015-000066,Natural,Hydrological,Landslide,Landslide,,,India,IND,Southern Asia,Asia,"Barpeta, Sonitpur, Goalpara, Dhemaji, Lakhimpur, Tinsukia, Darrang, Nalbari, Jorhat, Kamrup, Dibrugarh, Nagaon, Bongaigaon districts (Assam province) ",Seosnal monsoon,,,,,,,,,26.9195,93.87,,Bhrahmaputra river,2015,6.0,2.0,2015,6.0,29.0,3.0,,9000.0,,9000.0,,,91.57911703,2,,17576;17578;17580;17581;17583;17589;17590;17593;70086;70087;70089;70091;70093,"Barpeta, Bongaigaon, Darrang, Dhemaji, Dibrugarh, Goalpara, Jorhat, Kamrup, Lakhimpur, Nagaon, Nalbari, Sonitpur, Tinsukia (Adm2). "
2015,374,,Natural,Hydrological,Flood,,,,India,IND,Southern Asia,Asia,Assam province,Monsoonal rain,,,,,,,69190.0,Km2,26.8946,93.75,,Brahmaputra river,2015,8.0,13.0,2015,8.0,19.0,5.0,,18000.0,,18000.0,,,91.57911703,1,1487,,Assam (Adm1). 
2015,504,TC-2015-000163,Natural,Hydrological,Flood,,,,India,IND,Southern Asia,Asia,"Chittoor, Cuddapah, Prakasam, Nellore districts (Andhra Pradesh province), Chennai, Cuddalore, Nagapattinam, Kancheepuram, Thiruvallur, Villupuram districts (Tamil Nadu province), Puducherry province",Tropical depression 'Rovan',,,,,Yes,,93202.0,Km2,118.278,788.55,,,2015,11.0,8.0,2015,12.0,4.0,325.0,1000.0,1800000.0,,1801000.0,755000.0,2200000.0,91.57911703,1;2,70080,17549;17550;17561;17563;70242;70243;70244;70247;70251;70255,"Puducherry (Adm1). Chennai, Chittoor, Cuddalore, Cuddapah, Kancheepuram, Nagapattinam, Nellore, Prakasam, Thiruvallur, Villupuram (Adm2). "
2016,139,,Natural,Hydrological,Flood,,,,India,IND,Southern Asia,Asia,"Arunachal Pradesh, Assam, Nagaland provinces",Pre-monsoon rains,"Slide (land, mud, snow, rock)",,,,,,70518.0,Km2,27.464,95.607,,Brahmaptura river,2016,4.0,22.0,2016,4.0,25.0,18.0,,100000.0,,100000.0,,150000.0,92.73447917,1,1487;1503;70072,,"Arunachal Pradesh, Assam, Nagaland (Adm1). "
2016,2,,Natural,Geophysical,Earthquake,Ground movement,,,India,IND,Southern Asia,Asia,"Guwahati city (Kamrup district, Assam province), East Imphal, West Imphal, Senapati, Thoubal, Bishnupur, Tamenglong districts (Manipur province)",,,,,,,,7.0,Richter,24.804,93.65,,,2016,1.0,3.0,2016,1.0,3.0,8.0,308.0,10500.0,,10808.0,,75000.0,92.73447917,2,,17583;70188;70191;70192;70193;70194;70196,"Bishnupur, East Imphal, Kamrup, Senapati, Tamenglong, Thoubal, West Imphal (Adm2). "
2016,239,,Natural,Hydrological,Flood,Flash flood,,,India,IND,Southern Asia,Asia,"Chamoli, Pithoragahr districts (Uttarakhand province), Assam, Arunachal Pradesh provinces",Torrential rains,,,,,,,135742.0,Km2,27.068,93.95,,Alaknanda and Mandakini rivers,2016,6.0,25.0,2016,7.0,1.0,61.0,,,,,,100000.0,92.73447917,1;2,1487;70072,17932;70282,"Arunachal Pradesh, Assam (Adm1). Chamoli, Pithoragarh (Adm2). "
2016,391,,Natural,Hydrological,Flood,,,,India,IND,Southern Asia,Asia,"Andhra Pradesh province, Telangana",Monsoonal rains,,,,,,,137435.0,Km2,17.654,80.34,,,2016,9.0,21.0,2016,9.0,29.0,28.0,,3000.0,,3000.0,44000.0,589000.0,92.73447917,1,1485,,Andhra Pradesh (Adm1). 
2017,495,,Natural,Hydrological,Flood,Flash flood,,,India,IND,Southern Asia,Asia,Chenai (Tamil Nadu),Heavy rains,,,,,,,50536.0,Km2,10.489,79.004,,,2017,10.0,30.0,2017,11.0,8.0,21.0,,4000.0,,4000.0,,,94.70984073,2,,70242,Chennai (Adm2). 
1966,143,,Natural,Geophysical,Earthquake,Ground movement,,,India,IND,Southern Asia,Asia,North,,,,,,,,6.0,Richter,28.7,78.9,07:45,,1966,8.0,15.0,1966,8.0,15.0,15.0,,,,,,,12.5413205,,,,
2021,225,,Natural,Geophysical,Earthquake,Ground movement,,,India,IND,Southern Asia,Asia,"Kamrup and Nagaon (Sonitpur District, northern Assam State)",,,,,,,,6.0,Richter,26.781,92.457,07:51,,2021,4.0,28.0,2021,4.0,28.0,2.0,10.0,3000.0,,3010.0,,,,2,,17593,Sonitpur (Adm2). 
